[
  {"id": 1, "name": "1st Ave & Main St", "area": "Downtown", "road_type": "intersection", "latitude": 40.7128, "longitude": -74.006},
  {"id": 2, "name": "Broadway & 7th", "area": "Midtown", "road_type": "intersection", "latitude": 40.758, "longitude": -73.9855},
  {"id": 3, "name": "River Pkwy Segment A", "area": "West Side", "road_type": "segment", "latitude": 40.73, "longitude": -73.995},
  {"id": 4, "name": "Central Ave & Pine", "area": "Uptown", "road_type": "intersection", "latitude": 40.745, "longitude": -73.97},
  {"id": 5, "name": "East Loop Segment B", "area": "East Side", "road_type": "segment", "latitude": 40.735, "longitude": -73.955},
  {"id": 6, "name": "Market St & 3rd", "area": "Downtown", "road_type": "intersection", "latitude": 40.71, "longitude": -74.001},
  {"id": 7, "name": "Harbor Rd Segment C", "area": "Harbor", "road_type": "segment", "latitude": 40.7, "longitude": -74.015},
  {"id": 8, "name": "University Ave & Oak", "area": "Campus", "road_type": "intersection", "latitude": 40.729, "longitude": -73.9965}
]
